City,Cloudiness,Country,Date,Humidity,Lat,Lng,Max Temp,Wind Speed
Ushuaia,20,AR,2019-03-24 03:00:00,76,-54.81,-68.31,51.8,20.8
Busselton,12,AU,2019-03-24 03:40:17,29,-33.64,115.35,72,15.79
Clonakilty,40,IE,2019-03-24 03:00:00,80,51.62,-8.87,39.2,5.82
Oranjemund,92,ZA,2019-03-24 03:42:45,92,-28.55,16.43,62.22,2.48
Dingle,0,PH,2019-03-24 03:41:59,55,11,122.67,84.63,15.68
Kodiak,90,US,2019-03-24 03:38:52,57,39.95,-94.76,53.01,8.05
Guymon,20,US,2019-03-24 03:15:00,66,36.68,-101.48,50,11.41
Arraial do Cabo,12,BR,2019-03-24 03:41:22,92,-22.97,-42.02,77.88,9.75
Rikitea,80,PF,2019-03-24 03:41:19,99,-23.12,-134.97,79.14,18.25
Uryupinsk,20,RU,2019-03-24 03:33:37,84,50.8,42.01,30.99,1.01
Punta Arenas,75,CL,2019-03-24 03:33:09,87,-53.16,-70.91,51.8,12.75
Grindavik,40,IS,2019-03-24 03:31:38,100,63.84,-22.43,33.8,3.36
Sinnamary,100,GF,2019-03-24 03:43:01,99,5.38,-52.96,78.78,11.54
Saint Marys,1,US,2019-03-24 03:40:04,50,41.43,-78.56,30.2,5.82
Port Alfred,68,ZA,2019-03-24 03:39:27,97,-33.59,26.89,73.99,1.01
La Ronge,20,CA,2019-03-24 03:00:00,62,55.1,-105.3,19.4,8.05
Upernavik,32,GL,2019-03-24 03:41:53,100,72.79,-56.15,-10.24,11.1
Puerto Ayora,24,EC,2019-03-24 03:31:17,95,-0.74,-90.35,77,10.87
Pangnirtung,68,CA,2019-03-24 03:43:12,73,66.15,-65.72,5.16,26.08
Iberia,32,PE,2019-03-24 03:43:13,92,-11.41,-69.49,74.73,1.48
Behshahr,0,IR,2019-03-24 03:00:00,100,36.69,53.54,44.6,4.7
Ponta do Sol,64,BR,2019-03-24 03:41:39,92,-20.63,-46,67.26,2.93
Antalaha,0,MG,2019-03-24 03:43:17,94,-14.9,50.28,76.53,10.09
Namwala,8,ZM,2019-03-24 03:43:19,77,-15.75,26.45,67.89,9.42
Namibe,88,AO,2019-03-24 03:43:20,100,-15.19,12.15,78.06,1.36
Quatre Cocos,75,MU,2019-03-24 03:38:59,83,-20.21,57.76,82.4,11.41
Hays,1,US,2019-03-24 03:31:00,87,38.88,-99.33,50,12.75
Anadyr,75,RU,2019-03-24 03:43:14,78,64.73,177.51,8.6,14.45
Vila Velha,75,BR,2019-03-24 03:38:22,94,-3.71,-38.6,79,2.24
Bredasdorp,92,ZA,2019-03-24 03:30:24,83,-34.53,20.04,69.8,1.12
Kingston,5,CA,2019-03-24 03:42:12,56,44.23,-76.48,33.01,13.87
Kaitangata,100,NZ,2019-03-24 03:43:31,67,-46.28,169.85,69.42,3.71
Chegdomyn,12,RU,2019-03-24 03:43:32,41,51.13,133.04,19.38,3.15
Mataura,76,NZ,2019-03-24 03:40:07,82,-46.19,168.86,69.01,1.99
Cape Town,40,ZA,2019-03-24 03:38:10,93,-33.93,18.42,71.01,12.75
New Norfolk,75,AU,2019-03-24 03:41:15,60,-42.78,147.06,71.01,12.75
Hasaki,20,JP,2019-03-24 03:33:13,25,35.73,140.83,57,19.46
Kulhudhuffushi,0,MV,2019-03-24 03:43:39,100,6.62,73.07,83.73,7.85
Bluff,0,AU,2019-03-24 03:43:41,48,-23.58,149.07,90.66,8.3
Mar del Plata,0,AR,2019-03-24 03:43:42,100,-46.43,-67.52,45.93,3.15
Saldanha,0,PT,2019-03-24 03:43:43,90,41.42,-6.55,36.21,3.04
Akalkot,0,IN,2019-03-24 03:43:45,43,17.53,76.22,81.75,4.61
Jalu,0,LY,2019-03-24 03:43:47,82,29.03,21.55,56.73,9.64
Hami,0,CN,2019-03-24 03:43:49,47,42.84,93.51,49.8,8.08
Teknaf,0,BD,2019-03-24 03:43:50,71,20.86,92.31,84,3.49
Santa Isabel do Rio Negro,20,BR,2019-03-24 03:43:51,94,-0.41,-65.02,77.16,2.48
Saint-Philippe,1,CA,2019-03-24 03:40:12,46,45.36,-73.48,30.99,13.87
Jodar,0,ES,2019-03-24 03:42:04,77,37.84,-3.35,46.99,1.99
Inongo,92,CD,2019-03-24 03:43:55,100,-1.93,18.29,69.69,3.27
Bundibugyo,8,UG,2019-03-24 03:43:56,88,0.71,30.06,57.81,1.7
Samarai,92,PG,2019-03-24 03:43:58,100,-10.62,150.67,79.59,8.97
Kovdor,24,RU,2019-03-24 03:43:59,79,67.56,30.47,28.11,7.85
Port Lincoln,80,AU,2019-03-24 03:44:02,86,-34.72,135.86,68.79,22.39
Esperance,20,TT,2019-03-24 03:40:08,83,10.24,-61.45,77,9.17
San Quintin,12,PH,2019-03-24 03:44:04,43,17.54,120.52,84.54,3.83
Omboue,80,GA,2019-03-24 03:44:06,100,-1.57,9.26,78.96,3.83
Touros,40,BR,2019-03-24 03:00:00,94,-5.2,-35.46,78.8,5.82
Torbay,90,CA,2019-03-24 03:38:37,93,47.66,-52.73,37.99,18.34
Vaini,0,IN,2019-03-24 03:00:00,23,15.34,74.49,84.2,5.82
Thompson,5,CA,2019-03-24 03:00:00,54,55.74,-97.86,5,5.82
Vermilion,75,CA,2019-03-24 03:00:00,80,53.35,-110.85,35.6,13.87
Bambous Virieux,75,MU,2019-03-24 03:43:59,83,-20.34,57.76,82.4,11.41
Wajir,0,KE,2019-03-24 03:44:15,70,1.75,40.07,75.9,11.77
Majene,8,ID,2019-03-24 03:43:16,90,-3.54,118.97,84.99,10.42
Jamestown,92,AU,2019-03-24 03:41:00,92,-33.21,138.6,66.9,20.27
Yar-Sale,24,RU,2019-03-24 03:44:19,77,66.83,70.83,11.1,7.63
Karratha,100,AU,2019-03-24 03:44:20,70,-20.74,116.85,81.03,39.5
Baoqing,88,CN,2019-03-24 03:44:21,63,46.32,132.2,31.26,9.64
Homer,75,US,2019-03-24 03:42:06,70,59.64,-151.54,44.6,4.7
Hermanus,20,ZA,2019-03-24 03:30:24,97,-34.42,19.24,60.01,2.71
Longyearbyen,20,NO,2019-03-24 02:50:00,61,78.22,15.63,17.6,11.41
Albany,1,US,2019-03-24 03:38:11,40,42.65,-73.75,33.8,8.75
Tiksi,48,RU,2019-03-24 03:44:29,78,71.64,128.87,6.6,7.18
Avarua,92,CK,2019-03-24 03:00:00,94,-21.21,-159.78,77,3.36
Beyneu,0,KZ,2019-03-24 03:44:32,83,45.32,55.19,33.33,3.71
Guerrero Negro,0,MX,2019-03-24 03:44:33,88,27.97,-114.04,58.26,8.75
Lebu,20,ET,2019-03-24 03:00:00,58,8.96,38.73,57.2,4.7
Tasiilaq,0,GL,2019-03-24 02:50:00,40,65.61,-37.64,14,3.36
Butaritari,88,KI,2019-03-24 03:44:39,100,3.07,172.79,80.85,9.64
Torres,0,BR,2019-03-24 03:42:07,100,-29.34,-49.73,64.83,3.49
Khatanga,0,RU,2019-03-24 03:41:43,34,71.98,102.47,-9.88,6.06
Catalao,12,BR,2019-03-24 03:44:44,92,-18.17,-47.95,67.53,5.39
Pisco,0,PE,2019-03-24 03:00:00,73,-13.71,-76.2,71.6,8.05
Sola,20,NO,2019-03-24 03:40:02,100,58.89,5.65,42.01,9.17
Nikolskoye,20,RU,2019-03-24 03:40:35,93,59.7,30.79,37,4.47
Rawson,0,AR,2019-03-24 03:43:23,67,-43.3,-65.11,55.47,15.79
Amapa,20,HN,2019-03-24 03:00:00,73,15.09,-87.97,73.4,6.93
Chokurdakh,24,RU,2019-03-24 03:42:05,98,70.62,147.9,-0.34,4.38
Bethel,90,US,2019-03-24 02:56:00,75,60.79,-161.76,42.8,16.11
Hilo,1,US,2019-03-24 03:36:26,64,19.71,-155.08,75.2,11.41
Mount Isa,75,AU,2019-03-24 03:00:00,62,-20.73,139.49,84.2,18.34
Hovd,75,NO,2019-03-24 03:44:31,74,63.83,10.7,39,20.8
Bay Roberts,90,CA,2019-03-24 03:43:27,93,47.58,-53.28,37.99,18.34
Ilabaya,0,PE,2019-03-24 03:45:02,77,-17.42,-70.51,53.76,2.15
Ambilobe,48,MG,2019-03-24 03:45:04,96,-13.19,49.05,72.57,2.59
Rocha,0,UY,2019-03-24 03:45:06,71,-34.48,-54.34,61.32,8.19
Rio Gallegos,75,AR,2019-03-24 03:00:00,87,-51.62,-69.22,51.8,17.22
Kapaa,90,US,2019-03-24 03:38:25,83,22.08,-159.32,75.2,20.8
Siocon,8,PH,2019-03-24 03:45:10,93,11.03,124.04,81.12,12.55
Ortakoy,75,TR,2019-03-24 03:20:00,63,38.74,34.04,30.2,23.04
Kensington,90,CA,2019-03-24 03:42:52,87,46.44,-63.64,32,20.8
Puerto Escondido,0,MX,2019-03-24 03:45:14,100,15.86,-97.07,83.73,9.64
Tuktoyaktuk,75,CA,2019-03-24 03:00:00,72,69.44,-133.03,15.8,20.8
Klaksvik,88,FO,2019-03-24 03:20:00,86,62.23,-6.59,39.2,10.29
Ribeira Grande,56,PT,2019-03-24 03:45:18,100,38.52,-28.7,57.9,24.18
Muros,0,ES,2019-03-24 03:45:04,57,42.77,-9.06,55.99,10.2
Kupang,40,ID,2019-03-24 03:00:00,62,-10.16,123.6,89.6,12.75
Port Blair,0,IN,2019-03-24 03:42:06,100,11.67,92.75,82.2,7.74
Harper,90,US,2019-03-24 03:41:23,88,30.3,-99.24,66.2,13.87
Carnarvon,8,ZA,2019-03-24 03:45:25,23,-30.97,22.13,64.38,6.4
Payo,24,ID,2019-03-24 03:45:26,97,-3.75,103.64,78.96,6.17
Senj,0,HR,2019-03-24 03:45:04,57,45.35,13.91,55.99,5.82
Cherskiy,12,RU,2019-03-24 03:45:29,66,68.75,161.3,10.2,2.37
Girona,0,ES,2019-03-24 03:43:56,75,41.98,2.82,57.99,3.36
Sao Filipe,68,CV,2019-03-24 03:42:38,100,14.9,-24.5,69.15,11.65
Presidencia Roque Saenz Pena,0,AR,2019-03-24 03:45:34,78,-26.79,-60.44,65.82,3.71
Miyako,20,JP,2019-03-24 03:45:05,37,33.63,130.94,55.99,9.17
Freeport,48,BS,2019-03-24 03:45:38,100,26.54,-78.7,72.93,11.99
Buala,68,SB,2019-03-24 03:43:32,81,-8.15,159.59,85.8,6.4
La Asuncion,76,EC,2019-03-24 03:45:40,100,-1.64,-78.74,45.12,1.59
Charyshskoye,12,RU,2019-03-24 03:45:42,62,51.4,83.56,33.96,4.61
Cassilandia,12,BR,2019-03-24 03:45:43,88,-19.11,-51.73,71.49,7.74
Bayburt,92,TR,2019-03-24 03:45:47,83,40.26,40.22,18.93,2.93
Tateyama,75,JP,2019-03-24 03:45:41,89,36.66,137.31,51.01,3.36
Mecca,0,SA,2019-03-24 03:43:35,58,21.43,39.83,58.98,2.59
Yeppoon,0,AU,2019-03-24 03:00:00,36,-23.13,150.74,91.4,8.05
Palmer,90,US,2019-03-24 03:45:46,70,61.6,-149.11,44.6,14.99
Codrington,0,AU,2019-03-24 03:43:10,44,-28.95,153.24,95,3.36
Ostrovnoy,0,RU,2019-03-24 03:45:55,87,68.05,39.51,30,19.04
Hirado,20,JP,2019-03-24 03:43:39,34,33.32,129.49,53.01,4.7
Barrow,0,AR,2019-03-24 03:42:02,93,-38.31,-60.23,52.41,5.17
Hithadhoo,76,MV,2019-03-24 03:45:59,98,-0.6,73.08,86.25,8.52
Qaanaaq,12,GL,2019-03-24 03:41:49,81,77.48,-69.36,-26.89,10.76
Holme,20,GB,2019-03-24 03:46:00,86,53.7,-2.31,41,3.36
Englewood,20,US,2019-03-24 03:41:49,93,39.65,-104.99,41,6.93
Kahului,40,US,2019-03-24 03:45:15,65,20.89,-156.47,78.8,23.04
Half Moon Bay,75,US,2019-03-24 03:41:11,81,37.46,-122.43,55.4,6.93
Port Elizabeth,1,US,2019-03-24 03:45:21,38,39.31,-74.98,45,5.82
Airai,32,TL,2019-03-24 03:46:08,65,-8.93,125.41,83.64,1.81
Chulman,80,RU,2019-03-24 03:46:09,66,56.84,124.9,18.57,3.71
Pangai,20,TO,2019-03-24 03:00:00,61,-19.8,-174.35,82.4,6.93
Pavlodar,75,KZ,2019-03-24 03:00:00,100,52.28,76.96,28.4,6.71
Playas,68,EC,2019-03-24 03:46:15,84,-2.64,-80.39,76.8,7.4
Gorontalo,12,ID,2019-03-24 03:46:17,60,0.54,123.06,87.6,2.59
Castro,75,CL,2019-03-24 03:00:00,93,-42.48,-73.76,50,5.82
Inverell,0,AU,2019-03-24 03:46:04,32,-29.78,151.11,95,5.01
Gizo,80,IL,2019-03-24 03:46:00,77,31.8,34.94,59,2.24
Luderitz,48,NA,2019-03-24 03:46:22,93,-26.65,15.16,57.63,9.75
Cayenne,75,GF,2019-03-24 03:00:00,83,4.94,-52.33,78.8,8.05
Bathsheba,75,BB,2019-03-24 03:00:00,83,13.22,-59.52,77,16.11
Zyryanka,24,RU,2019-03-24 03:46:27,72,65.73,150.89,12.54,3.15
Nuqui,32,CO,2019-03-24 03:46:29,95,5.71,-77.27,77.43,2.04
Wasilla,90,US,2019-03-24 03:43:25,70,61.58,-149.44,44.6,3.36
Saint Anthony,40,US,2019-03-24 03:45:53,87,43.97,-111.68,39.2,5.82
Sabang,0,PH,2019-03-24 03:46:33,72,13.72,123.58,82.83,12.66
Atuona,92,PF,2019-03-24 03:46:34,99,-9.8,-139.03,82.65,16.46
Kalmunai,0,LK,2019-03-24 03:45:20,83,7.42,81.82,81.66,3.94
Suntar,68,RU,2019-03-24 03:46:37,61,62.16,117.65,15.96,7.96
Talnakh,76,RU,2019-03-24 03:46:38,83,69.49,88.39,8.94,7.18
Kiama,40,AU,2019-03-24 03:46:06,54,-34.67,150.86,82.4,5.82
Ouallam,68,NE,2019-03-24 03:46:41,16,14.32,2.08,76.53,9.19
Tiznit,92,MA,2019-03-24 03:46:42,100,29.7,-9.73,59.7,6.06
Honiara,64,SB,2019-03-24 03:46:46,87,-9.43,159.96,80.4,2.71
Peyima,68,SL,2019-03-24 03:46:47,93,8.69,-11.04,70.68,3.27
Bulancak,75,TR,2019-03-24 02:50:00,60,40.94,38.23,42.8,11.41
Tubbergen,0,NL,2019-03-24 03:46:42,100,52.41,6.78,39.99,4.38
Cabo San Lucas,5,MX,2019-03-24 03:40:08,77,22.89,-109.91,69.01,7.63
Merauke,36,ID,2019-03-24 03:46:53,99,-8.49,140.4,81.39,9.86
San Patricio,0,PY,2019-03-24 03:46:54,83,-26.98,-56.83,61.86,2.15
Hobart,75,AU,2019-03-24 03:37:21,60,-42.88,147.33,71.01,12.75
Paka,0,HR,2019-03-24 03:00:00,78,45.29,18.06,37.4,5.82
Adrar,0,DZ,2019-03-24 03:00:00,35,27.87,-0.29,57.2,12.75
Black Diamond,75,CA,2019-03-24 03:46:25,93,50.69,-114.23,37.99,9.17
Sanmenxia,8,CN,2019-03-24 03:47:02,40,34.77,111.19,55.74,3.49
Fortuna,0,ES,2019-03-24 03:46:34,81,38.18,-1.13,53.6,3.36
Constitucion,5,MX,2019-03-24 02:42:00,23,23.99,-104.67,64.4,10.29
Dikson,68,RU,2019-03-24 03:46:11,95,73.51,80.55,17.94,23.51
Methoni,0,GR,2019-03-24 03:45:39,41,36.82,21.7,59,6.62
Saskylakh,0,RU,2019-03-24 03:41:30,43,71.97,114.09,-14.29,3.27
Vostok,0,RU,2019-03-24 03:47:10,41,46.45,135.83,24.06,3.94
Kushima,20,JP,2019-03-24 03:03:07,46,31.5,131.29,53.6,6.93
Batemans Bay,92,AU,2019-03-24 03:46:07,78,-35.71,150.18,75.99,3
Joshimath,0,IN,2019-03-24 03:47:14,99,30.57,79.57,8.13,0.58
Santa Vitoria do Palmar,0,BR,2019-03-24 03:47:16,92,-33.52,-53.37,64.2,13
Saint George,20,GR,2019-03-24 03:43:27,86,39.45,22.34,52,6.93
Aviles,8,ES,2019-03-24 03:46:11,87,43.55,-5.92,48.99,1.12
Aklavik,75,CA,2019-03-24 03:00:00,67,68.22,-135.01,21.2,10.29
Eatonton,1,US,2019-03-24 03:46:28,71,33.33,-83.39,55.4,6.17
Souillac,0,FR,2019-03-24 03:42:09,76,45.6,-0.6,48.2,3.36
Waitati,8,NZ,2019-03-24 03:38:26,84,-45.75,170.57,64.99,10
Prince George,1,CA,2019-03-24 03:40:18,80,53.92,-122.75,36,2.37
Norman Wells,40,CA,2019-03-24 03:00:00,83,65.28,-126.83,32,14.99
Lethem,0,GY,2019-03-24 03:47:27,52,3.38,-59.8,83.28,13.89
Naze,80,NG,2019-03-24 03:47:29,93,5.43,7.07,74.1,2.71
Victoria,75,BN,2019-03-24 03:00:00,66,5.28,115.24,89.6,3.36
Pevek,0,RU,2019-03-24 03:46:01,76,69.7,170.27,-3.58,3.6
Kloulklubed,75,PW,2019-03-24 02:50:00,58,7.04,134.26,86,10.29
Yellowknife,75,CA,2019-03-24 03:37:55,55,62.45,-114.38,10.4,10.29
Spornoye,0,RU,2019-03-24 03:00:00,94,50.84,37.29,32,8.95
Jining,24,CN,2019-03-24 03:47:38,49,35.41,116.58,60.6,10.98
Nemuro,75,JP,2019-03-24 03:00:00,79,43.32,145.57,26.6,9.17
Abha,0,SA,2019-03-24 03:00:00,58,18.22,42.5,55.4,4.7
Acapulco,5,MX,2019-03-24 02:48:00,83,16.86,-99.88,80.6,4.7
Iqaluit,90,CA,2019-03-24 03:42:49,78,63.75,-68.52,8.6,25.28
Severo-Kurilsk,80,RU,2019-03-24 03:43:09,98,50.68,156.12,28.92,22.06
Scarborough,64,GB,2019-03-24 03:43:37,80,54.28,-0.41,42.01,5.82
West Wendover,90,US,2019-03-24 02:56:00,93,40.74,-114.07,44.6,6.93
Gemena,64,CD,2019-03-24 03:47:50,95,3.25,19.78,72.12,3.27
Zhezkazgan,90,KZ,2019-03-24 03:00:00,100,47.8,67.71,30.2,2.24
Chicama,20,PE,2019-03-24 03:00:00,88,-7.84,-79.15,68,10.29
Imeni Poliny Osipenko,0,RU,2019-03-24 03:47:55,62,52.42,136.49,23.7,3.71
Eureka,1,US,2019-03-24 03:46:07,100,40.8,-124.16,48.2,6.93
Ugoofaaru,0,MV,2019-03-24 03:47:58,95,5.67,73,85.62,9.75
Mahebourg,75,MU,2019-03-24 03:43:59,83,-20.41,57.7,82.4,11.41
Imbituba,40,BR,2019-03-24 03:00:00,78,-28.24,-48.67,71.6,3.15
Tuatapere,44,NZ,2019-03-24 03:40:07,82,-46.13,167.69,69.01,1.99
Clyde River,90,CA,2019-03-24 03:00:00,83,70.47,-68.59,-14.81,21.92
Avera,1,US,2019-03-24 03:45:37,71,33.19,-82.53,55.4,4.7
Port Hedland,75,AU,2019-03-24 03:00:00,83,-20.31,118.58,80.6,47.2
Guasave,5,MX,2019-03-24 03:45:16,63,25.57,-108.47,66.2,6.93
Narsaq,76,GL,2019-03-24 02:50:00,52,60.91,-46.05,17.6,2.24
Lagoa,0,PT,2019-03-24 03:45:18,58,37.14,-8.45,57.2,13.87
Sao Miguel do Araguaia,20,BR,2019-03-24 03:48:12,95,-13.28,-50.16,73.65,2.93
Waingapu,64,ID,2019-03-24 03:48:15,80,-9.65,120.26,83.19,10.98
Coquimbo,75,CL,2019-03-24 03:00:00,87,-29.95,-71.34,57.2,1.12
Maua,12,KE,2019-03-24 03:48:18,81,0.23,37.94,59.7,1.7
Shache,12,CN,2019-03-24 03:46:14,45,38.42,77.24,39.99,4.38
Antofagasta,0,CL,2019-03-24 03:00:00,72,-23.65,-70.4,62.6,3.36
Laguna,0,MX,2019-03-24 03:45:37,36,27.52,-110.01,69.06,3.38
Pauini,64,BR,2019-03-24 03:48:23,96,-7.71,-67,74.28,2.93
Lata,0,IN,2019-03-24 03:48:24,57,30.78,78.62,49.53,2.04
Fare,56,PF,2019-03-24 03:48:25,99,-16.7,-151.02,84.81,10.98
Sheridan,20,US,2019-03-24 03:45:14,93,39.65,-105.03,41,6.93
Monroe,1,US,2019-03-24 03:43:19,55,41.91,-83.4,39,3.36
Kruisfontein,88,ZA,2019-03-24 03:48:30,83,-34,24.73,66.36,4.38
Tura,0,IN,2019-03-24 03:48:31,71,25.52,90.21,70.86,4.72
Nusaybin,75,TR,2019-03-24 03:00:00,87,37.08,41.21,50,11.41
Chuy,0,UY,2019-03-24 03:41:01,92,-33.69,-53.46,64.2,13
Hualmay,20,PE,2019-03-24 03:48:35,89,-11.1,-77.61,67.17,4.61
Nhamunda,8,BR,2019-03-24 03:48:36,95,-2.19,-56.71,75,2.37
Portland,75,US,2019-03-24 03:41:08,62,45.52,-122.67,53.01,6.93
Baruun-Urt,48,MN,2019-03-24 03:48:40,40,46.68,113.28,39.27,12.1
Wagar,0,US,2019-03-24 03:47:17,70,31.44,-87.99,54,5.95
Beaverlodge,75,CA,2019-03-24 03:00:00,88,55.21,-119.43,37.4,8.05
Redlands,90,US,2019-03-24 03:46:15,82,34.06,-117.19,62.6,12.75
Durant,1,US,2019-03-24 03:48:16,82,33.99,-96.37,66.99,13.87
Oyama,40,JP,2019-03-24 03:48:12,21,36.31,139.8,57,8.05
Faanui,32,PF,2019-03-24 03:48:50,100,-16.48,-151.75,84.81,10.65
Mbigou,92,GA,2019-03-24 03:48:52,97,-1.9,11.91,69.51,3.15
Kapuskasing,40,CA,2019-03-24 03:00:00,47,49.42,-82.43,37.4,8.05
Limbang,75,BN,2019-03-24 03:00:00,70,4.75,115.01,89.6,3.36
Provideniya,44,RU,2019-03-24 03:45:41,100,64.42,-173.23,22.08,23.73
Asuncion,0,PY,2019-03-24 03:00:00,83,-25.3,-57.63,73.4,2.82
Lompoc,1,US,2019-03-24 03:45:20,87,34.64,-120.46,57.2,12.75
Broome,80,GB,2019-03-24 03:46:18,86,52.47,1.45,42.01,3.36
Lazaro Cardenas,5,MX,2019-03-24 03:45:11,21,28.39,-105.62,66.99,5.06
Byron Bay,0,AU,2019-03-24 03:48:17,62,-28.65,153.62,95,12.75
Iquitos,0,PE,2019-03-24 03:00:00,94,-3.75,-73.25,77,2.48
Thoen,0,TH,2019-03-24 03:49:06,41,17.61,99.22,91.83,2.59
Ballina,44,IE,2019-03-24 03:48:11,76,54.11,-9.15,45,20
Saint-Denis,90,FR,2019-03-24 03:45:30,93,48.94,2.36,48.99,6.93
Nanortalik,80,GL,2019-03-24 03:41:51,100,60.14,-45.24,24.6,22.5
Fredericton,20,CA,2019-03-24 03:46:19,55,45.97,-66.65,37.4,13.87
Colac,36,AU,2019-03-24 03:42:08,42,-38.34,143.59,82.99,5.99
Bambanglipuro,64,ID,2019-03-24 03:45:42,98,-7.95,110.28,81.75,4.38
Kavieng,80,PG,2019-03-24 03:49:15,100,-2.57,150.8,80.76,6.62
Beloha,8,MG,2019-03-24 03:49:16,83,-25.17,45.06,74.1,14.67
Agirish,12,RU,2019-03-24 03:49:17,74,61.92,63.02,18.57,5.06
Porto Novo,75,BR,2019-03-24 03:00:00,94,-23.68,-45.44,68,3.36
Temiscaming,1,CA,2019-03-24 03:40:17,79,46.72,-79.1,28,12.75
Marystown,88,CA,2019-03-24 03:31:23,100,47.17,-55.16,36,19.71
Grand Gaube,75,MU,2019-03-24 03:43:59,83,-20.01,57.66,82.4,11.41
Georgetown,20,GY,2019-03-24 03:00:00,94,6.8,-58.16,75.2,4.7
Itaituba,88,BR,2019-03-24 03:49:25,89,-4.26,-55.99,77.52,2.37
Hobyo,88,SO,2019-03-24 03:49:28,79,5.35,48.53,81.12,13.56
Naron,0,ES,2019-03-24 03:45:33,93,43.52,-8.15,55.99,6.93
Zadar,0,HR,2019-03-24 03:46:05,75,44.12,15.24,46.99,1.12
Kasongo-Lunda,88,CD,2019-03-24 03:49:32,97,-6.48,16.82,67.98,0.81
Revda,48,RU,2019-03-24 03:49:33,83,67.94,34.55,28.47,7.74
Yulara,24,AU,2019-03-24 03:00:00,23,-25.24,130.99,96.8,6.93
Westport,92,IE,2019-03-24 03:43:03,84,53.8,-9.52,44.01,1.99
Sao Joao da Barra,32,BR,2019-03-24 03:49:38,97,-21.64,-41.05,80.67,10.87
Wakkanai,40,JP,2019-03-24 03:00:00,63,45.41,141.67,30.2,6.93
Matadi,68,CD,2019-03-24 03:49:41,100,-5.83,13.46,72.3,4.05
Eydhafushi,0,MV,2019-03-24 03:49:43,95,5.1,73.07,85.62,9.75
Yinchuan,0,CN,2019-03-24 03:47:19,45,38.48,106.21,50.43,4.5
Balkanabat,76,TM,2019-03-24 03:49:45,93,39.51,54.36,42.78,5.39
San Cristobal,75,EC,2019-03-24 03:45:33,93,-0.39,-78.55,57.2,4.7
Arlit,56,NE,2019-03-24 03:45:32,31,18.74,7.39,67.53,4.27
Mackay,90,CA,2019-03-24 03:15:00,86,53.65,-115.58,42.8,5.39
Los Llanos de Aridane,75,ES,2019-03-24 03:40:05,63,28.66,-17.92,62.6,8.05
Wernberg,0,AT,2019-03-24 03:49:39,93,46.62,13.93,50,5.82
Kilinochchi,0,LK,2019-03-24 03:49:53,99,9.4,80.4,81.93,8.75
Leningradskiy,76,RU,2019-03-24 03:49:54,83,69.38,178.42,-2.23,19.82
Zhigansk,64,RU,2019-03-24 03:49:56,65,66.77,123.37,12.72,9.64
Rafaela,0,AR,2019-03-24 03:45:51,56,-31.25,-61.49,69.01,8.3
Cabedelo,40,BR,2019-03-24 03:00:00,94,-6.97,-34.84,77,4.7
Yendi,64,GH,2019-03-24 03:50:01,68,9.45,0,81.3,9.64
Dubti,0,ET,2019-03-24 03:50:02,84,11.74,41.09,64.02,3.27
Isangel,90,VU,2019-03-24 03:00:00,70,-19.55,169.27,86,6.93
Ambon,0,FR,2019-03-24 03:49:37,87,47.55,-2.56,48.99,6.93
Egvekinot,80,RU,2019-03-24 03:50:07,74,66.32,-179.17,4.44,4.5
Tamandare,48,BR,2019-03-24 03:50:08,97,-8.28,-70.75,73.38,1.92
Dakar,0,SN,2019-03-24 03:00:00,82,14.69,-17.45,64.4,14.99
Comodoro Rivadavia,0,AR,2019-03-24 03:00:00,87,-45.87,-67.48,53.6,2.24
Bubaque,32,GW,2019-03-24 03:46:03,100,11.28,-15.83,76.35,14.12
Talcahuano,0,CL,2019-03-24 03:00:00,76,-36.72,-73.12,55.4,13.87
Almaznyy,75,RU,2019-03-24 03:00:00,88,48.03,40.04,33.8,8.95
Natal,40,BR,2019-03-24 03:00:00,88,-5.81,-35.21,80.6,4.7
Manggar,48,ID,2019-03-24 03:50:18,99,-2.88,108.27,83.55,5.06
East London,0,ZA,2019-03-24 03:38:46,91,-33.02,27.91,75.63,21.72
Cidreira,0,BR,2019-03-24 03:50:21,93,-30.17,-50.22,62.13,6.17
Hamilton,75,BM,2019-03-24 03:46:46,63,32.3,-64.78,64.4,20.8
Hambantota,20,LK,2019-03-24 03:10:00,94,6.12,81.12,82.4,5.82
Podgornoye,80,RU,2019-03-24 03:50:25,84,57.79,82.64,29.73,3.6
Xonacatlan,20,MX,2019-03-24 03:43:08,24,19.4,-99.53,75.2,3.36
Atar,0,MR,2019-03-24 03:50:27,68,20.52,-13.05,54.66,2.48
Kavaratti,12,IN,2019-03-24 03:41:49,100,10.57,72.64,83.46,10.76
Kostomuksha,0,RU,2019-03-24 03:50:30,76,64.59,30.6,29.46,9.98
Mengcheng,68,CN,2019-03-24 03:50:31,63,33.26,116.57,57.18,8.19
San Juan,0,AR,2019-03-24 03:46:25,64,-31.54,-68.53,63.48,5.06
Chabahar,80,IR,2019-03-24 03:50:37,96,25.29,60.65,73.02,6.96
Las Vegas,40,US,2019-03-24 03:45:19,27,36.17,-115.15,66.99,6.93
Bilibino,0,RU,2019-03-24 03:45:43,67,68.06,166.44,14.7,3.04
Huarmey,44,PE,2019-03-24 03:50:42,82,-10.07,-78.15,66.36,2.93
Shimoda,20,JP,2019-03-24 03:42:53,46,34.7,138.93,55.4,9.17
Khartoum,0,SD,2019-03-24 03:30:00,16,15.59,32.54,77,3.36
Edson,90,CA,2019-03-24 03:15:00,86,53.59,-116.44,39.2,4.83
Moyale,0,ET,2019-03-24 03:50:48,51,3.52,39.05,64.65,4.83
Ampanihy,0,MG,2019-03-24 03:50:49,87,-24.69,44.75,70.32,10.42
Richards Bay,8,ZA,2019-03-24 03:50:51,95,-28.77,32.06,69.6,9.75
Dovbysh,32,UA,2019-03-24 03:50:53,74,50.37,27.99,25.68,4.16
Hervey Bay,0,AU,2019-03-24 03:45:08,48,-25.3,152.85,90,10.29
Jambi,64,ID,2019-03-24 03:49:56,90,-1.6,103.62,79.95,3.83
Anloga,20,GH,2019-03-24 03:00:00,83,5.79,0.9,82.4,11.41
Anito,68,PH,2019-03-24 03:51:00,98,12.45,125.29,79.5,15.57
Elizabeth City,1,US,2019-03-24 03:50:32,69,36.3,-76.22,46.4,5.5
Soyo,64,AO,2019-03-24 03:51:04,97,-6.13,12.37,74.91,2.59
Filingue,64,NE,2019-03-24 03:51:05,22,14.35,3.32,75.99,10.2
Palimbang,75,PH,2019-03-24 03:49:53,48,14.9,120.78,91,6.93
Matagami,44,NG,2019-03-24 03:51:08,81,9.67,8.4,68.16,3.49
Sabha,36,LY,2019-03-24 03:51:09,53,27.03,14.43,52.23,7.18
Ancud,75,CL,2019-03-24 03:00:00,93,-41.87,-73.83,50,5.82
Jaisalmer,36,IN,2019-03-24 03:48:03,57,26.91,70.91,67.62,11.32
Verkhoturye,0,RU,2019-03-24 03:51:16,65,58.86,60.81,16.5,2.37
Bereda,0,ES,2019-03-24 03:50:04,93,43.27,-7.54,48.99,4.7
Chapais,90,CA,2019-03-24 03:00:00,41,49.78,-74.86,23,8.05
Sitka,0,US,2019-03-24 03:46:23,77,37.17,-99.65,48,10
Kalnibolotskaya,76,RU,2019-03-24 03:45:17,90,46.01,40.45,30,8.41
Tilichiki,0,RU,2019-03-24 03:51:25,76,60.47,166.1,17.04,7.74
Matara,56,PE,2019-03-24 03:51:28,93,-13.74,-72.9,41.43,1.48
Te Anau,88,NZ,2019-03-24 03:42:03,68,-45.41,167.72,65.82,9.64
Port Victoria,68,AU,2019-03-24 03:51:30,84,-34.5,137.49,71.76,17.02
Kourou,75,GF,2019-03-24 03:00:00,83,5.16,-52.64,78.8,8.05
Kendal,20,ID,2019-03-24 03:00:00,94,-6.92,110.2,77,3.36
Qaqortoq,80,GL,2019-03-24 02:50:00,52,60.72,-46.03,17.6,2.24
Tommot,76,RU,2019-03-24 03:51:35,74,58.97,126.27,22.98,3.83
Nome,1,US,2019-03-24 03:50:40,82,30.04,-94.42,64.99,4.7
Atambua,44,ID,2019-03-24 03:51:38,100,-9.11,124.89,81.66,4.72
Innisfail,90,CA,2019-03-24 03:50:16,100,52.02,-113.95,33.8,5.82
Atbasar,64,KZ,2019-03-24 03:51:41,93,51.81,68.36,32.7,3.83
Launceston,40,AU,2019-03-24 03:46:19,52,-41.43,147.14,69.8,20.8
Northam,92,GB,2019-03-24 03:51:17,65,51.04,-4.21,46.4,3.36
Beian,75,NO,2019-03-24 03:50:16,74,63.66,9.57,37.99,25.28
Cervo,44,BR,2019-03-24 03:51:46,96,-22.19,-46.24,61.59,0.58
Zatoka,75,PL,2019-03-24 03:51:40,87,50.04,20.52,48.99,4.7
Sao Jose da Coroa Grande,24,BR,2019-03-24 03:51:49,96,-8.9,-35.15,76.62,5.5
Husavik,12,CA,2019-03-24 03:50:55,88,50.56,-96.99,30.99,8.01
Mehamn,32,NO,2019-03-24 03:51:51,76,71.03,27.85,23.07,7.07
Coihaique,0,CL,2019-03-24 03:00:00,87,-45.58,-72.07,48.2,3.36
Pandamatenga,0,BW,2019-03-24 03:51:55,59,-18.54,25.64,70.41,12.66
Placido de Castro,88,BR,2019-03-24 03:51:56,89,-10.34,-67.19,74.46,1.92
Bilma,44,NE,2019-03-24 03:51:58,12,18.69,12.92,70.86,12.77
Baculin,32,PH,2019-03-24 03:51:59,84,7.45,126.58,79.95,13.44
Male,24,UA,2019-03-24 03:52:00,77,50.74,33.7,23.97,5.61
Lewistown,1,US,2019-03-24 03:51:36,61,40.39,-90.15,50,6.93
Rio Verde de Mato Grosso,0,BR,2019-03-24 03:52:03,71,-18.92,-54.84,73.47,5.84
Arbazh,76,RU,2019-03-24 03:52:04,78,57.68,48.31,23.61,5.39
Shenjiamen,36,CN,2019-03-24 03:52:06,91,29.96,122.3,52.14,10.31
Trelew,0,AR,2019-03-24 03:52:07,67,-43.25,-65.31,55.47,15.79
Surt,92,LY,2019-03-24 03:52:08,100,31.21,16.59,57.27,8.63
Theunissen,12,ZA,2019-03-24 03:52:10,86,-28.4,26.71,60.15,9.75
Bamiantong,12,CN,2019-03-24 03:52:11,71,44.93,130.53,33.96,9.19
Viedma,92,AR,2019-03-24 03:52:12,76,-40.81,-62.99,59.88,25.75
Redmond,40,US,2019-03-24 03:50:25,50,47.67,-122.12,53.6,3.36
Geraldton,75,CA,2019-03-24 03:00:00,64,49.72,-86.95,35.6,18.34
Barbacoas,88,CO,2019-03-24 03:52:16,98,1.67,-78.14,73.65,1.48
Vanimo,20,PG,2019-03-24 03:52:18,100,-2.67,141.3,83.1,7.96
Vestmanna,88,FO,2019-03-24 03:20:00,86,62.16,-7.17,39.2,10.29
Takoradi,24,GH,2019-03-24 03:52:23,100,4.89,-1.75,80.67,5.39
Estelle,1,US,2019-03-24 03:49:32,72,32.87,-97.01,68,8.05
Ibimirim,64,BR,2019-03-24 03:52:25,96,-8.54,-37.69,67.8,1.25
Vao,44,EE,2019-03-24 03:52:27,84,59.1,26.19,34.05,13.11
Jiangyou,80,CN,2019-03-24 03:52:28,63,31.78,104.73,51.33,3.83
Falam,0,MM,2019-03-24 03:52:29,51,22.91,93.68,71.22,1.92
Koroni,0,GR,2019-03-24 03:50:37,41,36.8,21.96,59,15.68
Veshenskaya,80,RU,2019-03-24 03:52:32,88,49.63,41.73,31.53,4.94
Muzambinho,24,BR,2019-03-24 03:52:34,93,-21.37,-46.52,65.46,2.71
Bilsanda,0,IN,2019-03-24 03:52:35,46,28.25,79.95,76.08,14.9
Paveh,90,IR,2019-03-24 03:00:00,86,35.05,46.36,41,4.7
Flinders,40,AU,2019-03-24 03:52:13,54,-34.58,150.85,82.99,5.82
Katsuura,40,JP,2019-03-24 03:48:38,71,33.93,134.5,51.8,16.11
Fairbanks,1,US,2019-03-24 03:45:06,52,64.84,-147.72,44.6,4.7
Menongue,48,AO,2019-03-24 03:52:42,60,-14.66,17.68,67.98,2.48
Pa Sang,24,TH,2019-03-24 03:42:37,45,18.53,98.94,95,2.24
Morros,75,BR,2019-03-24 03:00:00,94,-2.87,-44.04,77,2.24
Romitan,20,UZ,2019-03-24 03:00:00,87,39.93,64.38,44.6,9.17
Komsomolskiy,76,RU,2019-03-24 03:52:47,85,67.55,63.78,22.26,19.48
Slave Lake,1,CA,2019-03-24 03:00:00,48,55.28,-114.77,42.8,4.7
Kuhdasht,75,IR,2019-03-24 03:00:00,100,33.53,47.61,44.6,2.24
Port-Gentil,88,GA,2019-03-24 03:52:51,100,-0.72,8.78,76.89,0.69
Ust-Nera,0,RU,2019-03-24 03:52:53,71,64.57,143.24,11.55,2.71
Catalina,20,CO,2019-03-24 03:00:00,83,8.86,-75.38,80.6,8.19
Asyut,0,EG,2019-03-24 03:00:00,55,27.18,31.19,62.6,20.8
Funadhoo,0,MV,2019-03-24 03:52:57,98,6.15,73.27,84.72,9.42
Kieta,100,PG,2019-03-24 03:52:58,98,-6.22,155.63,80.58,4.72
Binzhou,0,CN,2019-03-24 03:48:51,22,37.38,117.96,63,3
Gat,0,SN,2019-03-24 03:00:00,82,14.69,-16.54,64.4,14.99
Bowen,40,AU,2019-03-24 03:52:22,74,-20.01,148.25,90,12.75
Iquique,0,CL,2019-03-24 03:00:00,68,-20.22,-70.14,68,2.24
Skibotn,75,NO,2019-03-24 03:48:17,86,69.39,20.27,33.8,12.75
Thaton,0,MM,2019-03-24 03:53:06,85,16.91,97.37,86.07,5.73
Morondava,0,MG,2019-03-24 03:53:07,100,-20.3,44.28,76.98,5.39
Labuhan,64,ID,2019-03-24 03:53:09,83,-2.54,115.51,82.29,3.04
Sovetskiy,64,RU,2019-03-24 03:53:10,90,56.76,48.47,27.03,6.51
Chacabuco,12,AR,2019-03-24 03:53:11,74,-34.64,-60.47,66.63,11.65
Turukhansk,80,RU,2019-03-24 03:53:13,91,65.8,87.96,21.09,6.62
Acari,88,BR,2019-03-24 03:53:15,97,-6.44,-36.64,70.68,2.93
Brewster,1,US,2019-03-24 03:53:02,47,41.76,-70.08,37.99,12.75
Visnes,44,NO,2019-03-24 03:52:03,86,59.36,5.22,42.01,18.34
Beringovskiy,92,RU,2019-03-24 03:51:39,88,63.05,179.32,16.77,19.6
Kuytun,56,RU,2019-03-24 03:53:22,77,54.34,101.51,29.64,3.49
San Miguel,0,AR,2019-03-24 03:53:20,77,-34.54,-58.72,70,2.24
Nampula,75,MZ,2019-03-24 03:00:00,100,-15.12,39.26,73.4,3.36
Lorengau,68,PG,2019-03-24 03:53:29,97,-2.02,147.27,83.37,10.09
Fukue,75,JP,2019-03-24 03:51:14,46,35.03,136.69,57.99,19.46
Edgewater,1,US,2019-03-24 03:52:38,76,28.99,-80.9,64,7.74
Nara,40,JP,2019-03-24 03:53:31,50,34.68,135.8,52,11.41
Lubango,36,AO,2019-03-24 03:53:35,93,-14.92,13.49,64.02,2.26
Yerbogachen,48,RU,2019-03-24 03:53:36,46,61.28,108.01,9.66,6.4
Broken Hill,40,AU,2019-03-24 03:00:00,78,-31.97,141.45,71.6,14.99
Rundu,0,NA,2019-03-24 03:53:39,47,-17.91,19.77,69.69,7.4
Wundanyi,80,KE,2019-03-24 03:53:40,94,-3.4,38.37,66.72,1.7
Odder,56,DK,2019-03-24 03:52:23,100,55.98,10.15,37,5.82
Gushikawa,75,JP,2019-03-24 03:00:00,56,26.35,127.87,71.6,12.75
Bitkine,44,TD,2019-03-24 03:53:45,42,11.98,18.21,74.28,4.16
Guasdualito,75,VE,2019-03-24 03:00:00,51,7.24,-70.73,84.2,6.51
Jian,0,IN,2019-03-24 03:53:48,37,25.65,87.89,77.88,3.15
Goderich,0,CA,2019-03-24 03:53:28,75,43.74,-81.71,35.01,8.99
Tecpan,0,GT,2019-03-24 03:50:03,67,14.76,-90.99,62.6,20.8
Salalah,75,OM,2019-03-24 02:50:00,78,17.01,54.1,78.8,6.93
Caravelas,44,BR,2019-03-24 03:52:29,100,-17.73,-39.27,82.38,16.8
Santa Lucia,5,IT,2019-03-24 02:55:00,50,39.93,9.66,55.4,4.7
Baragua,36,CU,2019-03-24 03:53:56,90,21.7,-78.63,73.83,12.88
Mount Gambier,40,AU,2019-03-24 03:20:00,53,-37.83,140.78,77,18.34
Ankazoabo,8,MG,2019-03-24 03:53:59,80,-22.29,44.51,71.13,7.4
Tsaratanana,44,MG,2019-03-24 03:54:00,91,-16.8,47.65,67.53,3.71
Makakilo City,1,US,2019-03-24 03:52:15,47,21.35,-158.09,80.6,11.41
Pacific Grove,40,US,2019-03-24 03:53:53,66,36.62,-121.92,55.99,4.7
Harer,1,US,2019-03-24 03:53:38,100,42.19,-111.17,39.99,3.36
Twin Falls,90,US,2019-03-24 03:45:20,87,42.57,-114.46,48,4.7
Ilulissat,68,GL,2019-03-24 02:50:00,49,69.22,-51.1,3.2,20.8
Vila Franca do Campo,40,PT,2019-03-24 03:53:53,81,37.72,-25.43,55,25.28
Meulaboh,88,ID,2019-03-24 03:54:11,100,4.14,96.13,78.42,4.38
Vanderhoof,0,CA,2019-03-24 03:54:12,75,54.02,-124.02,34.23,2.26
San Carlos,64,VE,2019-03-24 03:54:14,47,9.66,-68.59,84.54,6.73
Motygino,88,RU,2019-03-24 03:54:16,81,58.18,94.69,28.2,2.71
Kibondo,88,TZ,2019-03-24 03:54:17,95,-3.59,30.72,61.32,1.48
Verkhoyansk,36,RU,2019-03-24 03:53:28,71,67.55,133.39,7.95,3.71
Aketi,56,CD,2019-03-24 03:54:20,96,2.74,23.78,71.85,3.38
Bonthe,44,SL,2019-03-24 03:54:21,85,7.53,-12.5,78.78,2.71
Shirokiy,0,RU,2019-03-24 03:51:54,89,53.87,39.17,25,2.82
Olavarria,8,AR,2019-03-24 03:50:22,84,-36.89,-60.32,58.8,11.65
Muzhi,36,RU,2019-03-24 03:54:25,78,65.4,64.7,15.78,13.44
Nuevo Progreso,40,US,2019-03-24 03:53:48,83,26.05,-97.95,71.6,10.29
Beidao,0,CN,2019-03-24 03:54:28,80,34.57,105.89,42.6,3.94
Florence,40,US,2019-03-24 03:54:10,52,34.8,-87.68,57,5.82
Puerto del Rosario,20,ES,2019-03-24 03:30:00,72,28.5,-13.86,60.8,8.05
Corbu,0,RO,2019-03-24 03:30:00,68,44.41,28.66,30,6.93
Beisfjord,88,NO,2019-03-24 03:45:36,93,68.38,17.6,37,35.57
Bunia,8,CD,2019-03-24 03:52:46,83,1.56,30.25,59.97,2.15
Elko,90,US,2019-03-24 03:48:44,93,40.83,-115.76,37,1.92
Bundaberg,0,AU,2019-03-24 03:45:08,48,-24.87,152.35,90,10.29
Vestmannaeyjar,32,IS,2019-03-24 03:54:42,97,63.44,-20.27,36.66,30.89
Paita,24,PE,2019-03-24 03:54:43,76,-5.09,-81.11,75.18,5.95
Manjeshwar,20,IN,2019-03-24 03:00:00,74,12.72,74.89,80.6,4.7
Sisimiut,68,GL,2019-03-24 03:52:33,75,66.94,-53.67,-12.4,1.59
Porbandar,0,IN,2019-03-24 03:00:00,57,21.64,69.61,78.8,17.22
Marzuq,0,YE,2019-03-24 03:54:48,86,14.4,46.47,47.37,2.37
Dunmore Town,0,BS,2019-03-24 03:54:50,100,25.5,-76.65,73.92,13.89
Hofn,0,IS,2019-03-24 03:54:51,100,64.25,-15.21,38.46,20.49
College,1,US,2019-03-24 03:51:05,52,64.86,-147.8,44.6,4.7
Hay River,40,CA,2019-03-24 03:00:00,57,60.82,-115.79,23,11.41
Pontes e Lacerda,12,BR,2019-03-24 03:54:55,89,-15.23,-59.33,73.47,2.82
Yenagoa,44,NG,2019-03-24 03:54:56,93,4.92,6.26,75.99,5.95
Seymchan,12,RU,2019-03-24 03:54:58,83,62.93,152.39,14.7,3.27
Myitkyina,0,MM,2019-03-24 03:54:59,85,25.38,97.4,68.16,2.93
Skagen,0,SE,2019-03-24 03:53:59,74,58.6,13.44,39.2,10.29
Kozmodemyansk,90,RU,2019-03-24 03:00:00,100,56.33,46.55,28.4,11.18
Storforshei,88,NO,2019-03-24 03:53:13,93,66.4,14.52,32,10
Bangsund,88,NO,2019-03-24 03:55:02,77,64.4,11.39,41,8.01
Mendi,24,ET,2019-03-24 03:55:08,53,9.8,35.1,64.11,2.59
The Valley,20,AI,2019-03-24 03:46:04,74,18.22,-63.06,78.8,11.41
Yazman,92,SY,2019-03-24 03:55:11,98,36.74,38.46,48.81,5.95
Batticaloa,0,LK,2019-03-24 03:55:12,98,7.71,81.69,81.75,3.71
Canutama,48,BR,2019-03-24 03:55:13,89,-6.53,-64.38,77.52,2.59
Sampit,32,ID,2019-03-24 03:55:17,91,-2.54,112.95,85.08,4.94
San Ignacio,0,CL,2019-03-24 03:00:00,59,-36.8,-72.03,60.8,8.05
Ronneby,24,SE,2019-03-24 03:50:21,93,56.21,15.28,36,5.82
Evensk,0,RU,2019-03-24 03:55:21,89,61.92,159.24,30.36,15.23
Sovetskaya,0,RU,2019-03-24 03:46:03,8,44.78,41.17,28,5.99
Svetlogorsk,92,RU,2019-03-24 03:00:00,92,53.14,59.15,23,4.47
Novyy Urengoy,80,RU,2019-03-24 03:55:25,91,66.08,76.63,22.17,6.06
Belmonte,0,PT,2019-03-24 03:55:27,68,40.36,-7.35,44.76,6.17
Galveston,1,US,2019-03-24 03:55:22,51,40.58,-86.19,42.01,4.5
Hauterive,0,FR,2019-03-24 03:45:24,81,46.09,3.45,37.4,3.36
Port Macquarie,20,AU,2019-03-24 03:00:04,34,-31.43,152.91,98.01,10.29
Kununurra,0,AU,2019-03-24 03:00:00,46,-15.77,128.74,93.2,11.41
Qarqin,0,AF,2019-03-24 03:55:36,75,37.41,66.03,50.07,16.69
Shonguy,40,RU,2019-03-24 03:00:00,68,68.75,33.15,30.2,4.47
Praya,40,ID,2019-03-24 03:30:00,70,-8.71,116.27,86,14.99
Muhos,92,FI,2019-03-24 03:54:25,64,64.81,26,37.4,23.04
El Dorado,0,VE,2019-03-24 03:55:41,57,6.71,-61.64,79.59,4.94
Buin,0,CL,2019-03-24 03:54:07,45,-33.73,-70.74,77,3.36
Tourlaville,90,FR,2019-03-24 03:50:00,87,49.64,-1.57,48.99,8.05
Yidu,92,CN,2019-03-24 03:55:48,80,30.39,111.44,53.67,4.38
Sainte-Marie,5,CA,2019-03-24 03:55:24,50,46.45,-71.03,30.99,14.99
Ucluelet,12,CA,2019-03-24 03:55:26,90,48.94,-125.55,46.99,1.92
San Angelo,1,US,2019-03-24 03:55:05,41,31.46,-100.44,64,8.05
Srandakan,64,ID,2019-03-24 03:55:14,98,-7.94,110.25,81.75,4.38
Umm Lajj,20,SA,2019-03-24 03:55:56,80,25.02,37.27,66.72,8.63
Igarka,76,RU,2019-03-24 03:55:57,85,67.47,86.57,18.03,10.54
Balboa,100,CO,2019-03-24 03:55:59,98,2.04,-77.22,67.62,1.81
Kamo,75,JP,2019-03-24 03:40:04,60,37.64,139.08,41,13.87
La Orilla,0,MX,2019-03-24 03:56:02,98,18,-102.23,73.56,2.82
Itoman,75,JP,2019-03-24 03:00:00,52,26.12,127.67,71.6,12.75
Abu Dhabi,56,AE,2019-03-24 03:00:00,57,24.47,54.37,78.8,11.41
Kadhan,0,PK,2019-03-24 03:56:07,58,24.48,68.99,73.92,13
Manali,24,IN,2019-03-24 03:56:08,77,32.25,77.19,-0.25,1.25
Havoysund,80,NO,2019-03-24 02:50:00,73,71,24.66,26.6,10.29
Puerto Baquerizo Moreno,0,EC,2019-03-24 03:56:11,95,-0.9,-89.6,79.77,13.89
Gimli,12,CA,2019-03-24 03:50:55,88,50.63,-96.99,30.99,8.01
Umm Kaddadah,0,SD,2019-03-24 03:56:15,27,13.6,26.69,65.64,2.93
Gerash,20,IR,2019-03-24 03:00:00,93,27.67,54.14,50,2.37
Macusani,36,PE,2019-03-24 03:56:17,100,-14.07,-70.43,51.87,0.69
Gigmoto,0,PH,2019-03-24 03:56:19,89,13.78,124.39,81.75,12.77
Ankang,36,CN,2019-03-24 03:56:20,56,32.73,108.99,48.9,2.93
Kovernino,88,RU,2019-03-24 03:56:21,89,57.13,43.81,23.52,7.4
Angoram,56,PG,2019-03-24 03:56:23,66,-4.06,144.07,88.5,2.71
Mao,20,DO,2019-03-24 03:50:03,83,19.55,-71.08,75.99,4.7
Ancona,1,US,2019-03-24 03:55:17,56,41.04,-88.87,48.99,6.93
